{
  "version": 1,
  "generated_at": "2026-04-13T09:32:24.347225+00:00",
  "entity": {
    "o_id": 155,
    "title": "14e congrès de l'AEEMB",
    "type": "Événements"
  },
  "summary": {
    "by_role": {
      "all": {
        "total_mentions": 1,
        "year_min": 2013,
        "year_max": 2013,
        "newspapers_count": 1,
        "countries_count": 1
      }
    }
  },
  "timeline": {
    "by_role": {
      "all": {
        "years": [
          2013
        ],
        "countries": [
          "Burkina Faso"
        ],
        "series": {
          "Burkina Faso": [
            1
          ]
        }
      }
    }
  },
  "newspapers": {
    "by_role": {
      "all": [
        {
          "name": "An-Nasr Trimestriel",
          "total": 1,
          "articles": 0,
          "publications": 1,
          "country": "Burkina Faso",
          "year_min": 2013,
          "year_max": 2013
        }
      ]
    }
  },
  "countries": {
    "by_role": {
      "all": [
        {
          "name": "Burkina Faso",
          "count": 1
        }
      ]
    }
  },
  "network": {
    "by_role": {
      "all": {
        "nodes": [
          {
            "o_id": 155,
            "title": "14e congrès de l'AEEMB",
            "type": "center",
            "cooc": null,
            "score": null
          }
        ],
        "edges": []
      }
    }
  },
  "locations": {
    "by_role": {
      "all": [
        {
          "o_id": 284,
          "name": "Bobo-Dioulasso",
          "lat": 11.17715,
          "lng": -4.2979,
          "count": 1
        },
        {
          "o_id": 294,
          "name": "Centre culturel islamique AEEMB",
          "lat": 12.37545088285411,
          "lng": -1.4871601188636745,
          "count": 1
        },
        {
          "o_id": 443,
          "name": "Médine",
          "lat": 24.46861,
          "lng": 39.61417,
          "count": 1
        },
        {
          "o_id": 349,
          "name": "Koudougou",
          "lat": 12.25263,
          "lng": -2.36272,
          "count": 1
        },
        {
          "o_id": 376,
          "name": "Ouagadougou",
          "lat": 12.36566,
          "lng": -1.53388,
          "count": 1
        },
        {
          "o_id": 377,
          "name": "Ouahigouya",
          "lat": 13.58278,
          "lng": -2.42158,
          "count": 1
        }
      ]
    }
  }
}