{
  "version": 1,
  "generated_at": "2026-04-13T09:32:14.452317+00:00",
  "entity": {
    "o_id": 60088,
    "title": "Grande Mosquée de Pagouda",
    "type": "Lieux"
  },
  "summary": {
    "by_role": {
      "all": {
        "total_mentions": 2,
        "year_min": 2017,
        "year_max": 2024,
        "newspapers_count": 2,
        "countries_count": 1
      }
    }
  },
  "timeline": {
    "by_role": {
      "all": {
        "years": [
          2017,
          2024
        ],
        "countries": [
          "Togo"
        ],
        "series": {
          "Togo": [
            1,
            1
          ]
        }
      }
    }
  },
  "newspapers": {
    "by_role": {
      "all": [
        {
          "name": "Togo-Presse",
          "total": 1,
          "articles": 1,
          "publications": 0,
          "country": "Togo",
          "year_min": 2017,
          "year_max": 2017
        },
        {
          "name": "Agence Togolaise de Presse",
          "total": 1,
          "articles": 1,
          "publications": 0,
          "country": "Togo",
          "year_min": 2024,
          "year_max": 2024
        }
      ]
    }
  },
  "countries": {
    "by_role": {
      "all": [
        {
          "name": "Togo",
          "count": 2
        }
      ]
    }
  },
  "network": {
    "by_role": {
      "all": {
        "nodes": [
          {
            "o_id": 60088,
            "title": "Grande Mosquée de Pagouda",
            "type": "center",
            "cooc": null,
            "score": null
          },
          {
            "o_id": 60480,
            "title": "Binah",
            "type": "Lieux",
            "cooc": 2,
            "score": 6.5059
          },
          {
            "o_id": 60536,
            "title": "Pagouda",
            "type": "Lieux",
            "cooc": 2,
            "score": 6.0865
          }
        ],
        "edges": [
          {
            "source": 60088,
            "target": 60480,
            "weight": 6.5059,
            "cooc": 2
          },
          {
            "source": 60088,
            "target": 60536,
            "weight": 6.0865,
            "cooc": 2
          }
        ]
      }
    }
  },
  "locations": {
    "by_role": {
      "all": [
        {
          "o_id": 60480,
          "name": "Binah",
          "lat": 9.75,
          "lng": 1.31667,
          "count": 2
        },
        {
          "o_id": 60536,
          "name": "Pagouda",
          "lat": 9.75,
          "lng": 1.316667,
          "count": 2
        },
        {
          "o_id": 544,
          "name": "Togo",
          "lat": 8.66667,
          "lng": 1.08333,
          "count": 1
        },
        {
          "o_id": 277,
          "name": "Arabie saoudite",
          "lat": 25.0,
          "lng": 45.0,
          "count": 1
        },
        {
          "o_id": 60546,
          "name": "Stade municipal de Bafilo",
          "lat": 9.35758,
          "lng": 1.25269,
          "count": 1
        },
        {
          "o_id": 515,
          "name": "Niamtougou",
          "lat": 9.7666666666667,
          "lng": 1.1,
          "count": 1
        },
        {
          "o_id": 60486,
          "name": "Dankpen",
          "lat": 9.6833333333333,
          "lng": 0.6,
          "count": 1
        },
        {
          "o_id": 60491,
          "name": "Doufelgou",
          "lat": 9.76666667,
          "lng": 1.1,
          "count": 1
        },
        {
          "o_id": 496,
          "name": "Assoli",
          "lat": 9.35,
          "lng": 1.2666666666667,
          "count": 1
        },
        {
          "o_id": 499,
          "name": "Bafilo",
          "lat": 9.35,
          "lng": 1.26666667,
          "count": 1
        },
        {
          "o_id": 500,
          "name": "Bassar",
          "lat": 9.25,
          "lng": 0.78333333333333,
          "count": 1
        },
        {
          "o_id": 533,
          "name": "Kozah",
          "lat": 9.583333,
          "lng": 1.166667,
          "count": 1
        },
        {
          "o_id": 60500,
          "name": "Guérin-Kouka",
          "lat": 9.6905555555556,
          "lng": 0.61138888888889,
          "count": 1
        },
        {
          "o_id": 27738,
          "name": "Université de Kara",
          "lat": 9.530556,
          "lng": 1.208333,
          "count": 1
        },
        {
          "o_id": 508,
          "name": "Kara",
          "lat": 9.5488888888889,
          "lng": 1.1905555555556,
          "count": 1
        },
        {
          "o_id": 509,
          "name": "Kéran",
          "lat": 10.083333333333,
          "lng": 1.0,
          "count": 1
        }
      ]
    }
  }
}