{
  "version": 1,
  "generated_at": "2026-04-13T09:32:15.239526+00:00",
  "entity": {
    "o_id": 60545,
    "title": "Soumdina",
    "type": "Lieux"
  },
  "summary": {
    "by_role": {
      "all": {
        "total_mentions": 1,
        "year_min": 2020,
        "year_max": 2020,
        "newspapers_count": 1,
        "countries_count": 1
      }
    }
  },
  "timeline": {
    "by_role": {
      "all": {
        "years": [
          2020
        ],
        "countries": [
          "Togo"
        ],
        "series": {
          "Togo": [
            1
          ]
        }
      }
    }
  },
  "newspapers": {
    "by_role": {
      "all": [
        {
          "name": "Agence Togolaise de Presse",
          "total": 1,
          "articles": 1,
          "publications": 0,
          "country": "Togo",
          "year_min": 2020,
          "year_max": 2020
        }
      ]
    }
  },
  "countries": {
    "by_role": {
      "all": [
        {
          "name": "Togo",
          "count": 1
        }
      ]
    }
  },
  "network": {
    "by_role": {
      "all": {
        "nodes": [
          {
            "o_id": 60545,
            "title": "Soumdina",
            "type": "center",
            "cooc": null,
            "score": null
          }
        ],
        "edges": []
      }
    }
  },
  "locations": {
    "by_role": {
      "all": [
        {
          "o_id": 512,
          "name": "Kpalimé",
          "lat": 6.91,
          "lng": 0.62805555555556,
          "count": 1
        },
        {
          "o_id": 517,
          "name": "Pya",
          "lat": 9.65194444,
          "lng": 1.13638889,
          "count": 1
        },
        {
          "o_id": 457,
          "name": "Lomé",
          "lat": 6.12874,
          "lng": 1.22154,
          "count": 1
        },
        {
          "o_id": 60531,
          "name": "Notsé",
          "lat": 6.948333333333333,
          "lng": 1.1680555555555556,
          "count": 1
        },
        {
          "o_id": 532,
          "name": "Kloto",
          "lat": 7.083333,
          "lng": 0.75,
          "count": 1
        },
        {
          "o_id": 533,
          "name": "Kozah",
          "lat": 9.583333,
          "lng": 1.166667,
          "count": 1
        },
        {
          "o_id": 60501,
          "name": "Haho",
          "lat": 6.95,
          "lng": 1.16666667,
          "count": 1
        },
        {
          "o_id": 508,
          "name": "Kara",
          "lat": 9.5488888888889,
          "lng": 1.1905555555556,
          "count": 1
        },
        {
          "o_id": 351,
          "name": "Koweït",
          "lat": 29.5,
          "lng": 47.75,
          "count": 1
        }
      ]
    }
  }
}