{
  "version": 1,
  "generated_at": "2026-04-13T09:32:23.264925+00:00",
  "entity": {
    "o_id": 65687,
    "title": "Baraka City",
    "type": "Organisations"
  },
  "summary": {
    "by_role": {
      "all": {
        "total_mentions": 4,
        "year_min": 2015,
        "year_max": 2016,
        "newspapers_count": 1,
        "countries_count": 1
      }
    }
  },
  "timeline": {
    "by_role": {
      "all": {
        "years": [
          2015,
          2016
        ],
        "countries": [
          "Togo"
        ],
        "series": {
          "Togo": [
            2,
            2
          ]
        }
      }
    }
  },
  "newspapers": {
    "by_role": {
      "all": [
        {
          "name": "Togo-Presse",
          "total": 4,
          "articles": 4,
          "publications": 0,
          "country": "Togo",
          "year_min": 2015,
          "year_max": 2016
        }
      ]
    }
  },
  "countries": {
    "by_role": {
      "all": [
        {
          "name": "Togo",
          "count": 4
        }
      ]
    }
  },
  "network": {
    "by_role": {
      "all": {
        "nodes": [
          {
            "o_id": 65687,
            "title": "Baraka City",
            "type": "center",
            "cooc": null,
            "score": null
          },
          {
            "o_id": 73333,
            "title": "Adidogomé",
            "type": "Lieux",
            "cooc": 2,
            "score": 8.1784
          },
          {
            "o_id": 60544,
            "title": "Soudou",
            "type": "Lieux",
            "cooc": 2,
            "score": 7.8922
          },
          {
            "o_id": 499,
            "title": "Bafilo",
            "type": "Lieux",
            "cooc": 2,
            "score": 4.6077
          },
          {
            "o_id": 544,
            "title": "Togo",
            "type": "Lieux",
            "cooc": 4,
            "score": 3.0833
          },
          {
            "o_id": 457,
            "title": "Lomé",
            "type": "Lieux",
            "cooc": 2,
            "score": 2.3429
          }
        ],
        "edges": [
          {
            "source": 65687,
            "target": 73333,
            "weight": 8.1784,
            "cooc": 2
          },
          {
            "source": 65687,
            "target": 60544,
            "weight": 7.8922,
            "cooc": 2
          },
          {
            "source": 65687,
            "target": 499,
            "weight": 4.6077,
            "cooc": 2
          },
          {
            "source": 65687,
            "target": 544,
            "weight": 3.0833,
            "cooc": 4
          },
          {
            "source": 65687,
            "target": 457,
            "weight": 2.3429,
            "cooc": 2
          }
        ]
      }
    }
  },
  "locations": {
    "by_role": {
      "all": [
        {
          "o_id": 544,
          "name": "Togo",
          "lat": 8.66667,
          "lng": 1.08333,
          "count": 4
        },
        {
          "o_id": 60544,
          "name": "Soudou",
          "lat": 9.3166666666667,
          "lng": 1.4,
          "count": 2
        },
        {
          "o_id": 457,
          "name": "Lomé",
          "lat": 6.12874,
          "lng": 1.22154,
          "count": 2
        },
        {
          "o_id": 499,
          "name": "Bafilo",
          "lat": 9.35,
          "lng": 1.26666667,
          "count": 2
        },
        {
          "o_id": 73333,
          "name": "Adidogomé",
          "lat": 6.171275049714692,
          "lng": 1.1416055290325384,
          "count": 2
        },
        {
          "o_id": 522,
          "name": "Tchamba",
          "lat": 9.0333333333333,
          "lng": 1.4166666666667,
          "count": 1
        },
        {
          "o_id": 496,
          "name": "Assoli",
          "lat": 9.35,
          "lng": 1.2666666666667,
          "count": 1
        },
        {
          "o_id": 500,
          "name": "Bassar",
          "lat": 9.25,
          "lng": 0.78333333333333,
          "count": 1
        },
        {
          "o_id": 354,
          "name": "Libye",
          "lat": 28.0,
          "lng": 17.0,
          "count": 1
        },
        {
          "o_id": 531,
          "name": "Riyad",
          "lat": 24.65,
          "lng": 46.71,
          "count": 1
        },
        {
          "o_id": 443,
          "name": "Médine",
          "lat": 24.46861,
          "lng": 39.61417,
          "count": 1
        },
        {
          "o_id": 414,
          "name": "Soudan",
          "lat": 16.0,
          "lng": 30.0,
          "count": 1
        },
        {
          "o_id": 283,
          "name": "Bénin",
          "lat": 9.5,
          "lng": 2.25,
          "count": 1
        },
        {
          "o_id": 508,
          "name": "Kara",
          "lat": 9.5488888888889,
          "lng": 1.1905555555556,
          "count": 1
        }
      ]
    }
  }
}