{
  "version": 1,
  "generated_at": "2026-04-13T09:32:16.795208+00:00",
  "entity": {
    "o_id": 73303,
    "title": "Akodesséwa",
    "type": "Lieux"
  },
  "summary": {
    "by_role": {
      "all": {
        "total_mentions": 3,
        "year_min": 1990,
        "year_max": 2011,
        "newspapers_count": 2,
        "countries_count": 1
      }
    }
  },
  "timeline": {
    "by_role": {
      "all": {
        "years": [
          1990,
          2000,
          2011
        ],
        "countries": [
          "Togo"
        ],
        "series": {
          "Togo": [
            1,
            1,
            1
          ]
        }
      }
    }
  },
  "newspapers": {
    "by_role": {
      "all": [
        {
          "name": "Togo-Presse",
          "total": 2,
          "articles": 2,
          "publications": 0,
          "country": "Togo",
          "year_min": 2000,
          "year_max": 2011
        },
        {
          "name": "La Nouvelle Marche",
          "total": 1,
          "articles": 1,
          "publications": 0,
          "country": "Togo",
          "year_min": 1990,
          "year_max": 1990
        }
      ]
    }
  },
  "countries": {
    "by_role": {
      "all": [
        {
          "name": "Togo",
          "count": 3
        }
      ]
    }
  },
  "network": {
    "by_role": {
      "all": {
        "nodes": [
          {
            "o_id": 73303,
            "title": "Akodesséwa",
            "type": "center",
            "cooc": null,
            "score": null
          },
          {
            "o_id": 457,
            "title": "Lomé",
            "type": "Lieux",
            "cooc": 3,
            "score": 3.5143
          }
        ],
        "edges": [
          {
            "source": 73303,
            "target": 457,
            "weight": 3.5143,
            "cooc": 3
          }
        ]
      }
    }
  },
  "locations": {
    "by_role": {
      "all": [
        {
          "o_id": 457,
          "name": "Lomé",
          "lat": 6.12874,
          "lng": 1.22154,
          "count": 3
        },
        {
          "o_id": 73303,
          "name": "Akodesséwa",
          "lat": 6.1592,
          "lng": 1.27347,
          "count": 3
        },
        {
          "o_id": 544,
          "name": "Togo",
          "lat": 8.66667,
          "lng": 1.08333,
          "count": 1
        },
        {
          "o_id": 73289,
          "name": "Préfecture du Golfe",
          "lat": 6.133333,
          "lng": 1.2,
          "count": 1
        },
        {
          "o_id": 73288,
          "name": "Tokoin",
          "lat": 6.15,
          "lng": 1.216667,
          "count": 1
        },
        {
          "o_id": 73333,
          "name": "Adidogomé",
          "lat": 6.171275049714692,
          "lng": 1.1416055290325384,
          "count": 1
        }
      ]
    }
  }
}