{
  "version": 1,
  "generated_at": "2026-04-13T09:32:20.836071+00:00",
  "entity": {
    "o_id": 778,
    "title": "Association Islamique et Culturelle pour le Développement",
    "type": "Organisations"
  },
  "summary": {
    "by_role": {
      "all": {
        "total_mentions": 2,
        "year_min": 2000,
        "year_max": 2001,
        "newspapers_count": 1,
        "countries_count": 1
      }
    }
  },
  "timeline": {
    "by_role": {
      "all": {
        "years": [
          2000,
          2001
        ],
        "countries": [
          "Bénin"
        ],
        "series": {
          "Bénin": [
            1,
            1
          ]
        }
      }
    }
  },
  "newspapers": {
    "by_role": {
      "all": [
        {
          "name": "La Nation",
          "total": 2,
          "articles": 2,
          "publications": 0,
          "country": "Bénin",
          "year_min": 2000,
          "year_max": 2001
        }
      ]
    }
  },
  "countries": {
    "by_role": {
      "all": [
        {
          "name": "Bénin",
          "count": 2
        }
      ]
    }
  },
  "network": {
    "by_role": {
      "all": {
        "nodes": [
          {
            "o_id": 778,
            "title": "Association Islamique et Culturelle pour le Développement",
            "type": "center",
            "cooc": null,
            "score": null
          },
          {
            "o_id": 2026,
            "title": "Daouda Lawal",
            "type": "Personnes",
            "cooc": 2,
            "score": 7.0813
          },
          {
            "o_id": 61328,
            "title": "Santé",
            "type": "Sujets",
            "cooc": 2,
            "score": 1.8514
          },
          {
            "o_id": 283,
            "title": "Bénin",
            "type": "Lieux",
            "cooc": 2,
            "score": 1.4813
          },
          {
            "o_id": 75967,
            "title": "Développement",
            "type": "Sujets",
            "cooc": 2,
            "score": 1.4332
          }
        ],
        "edges": [
          {
            "source": 778,
            "target": 2026,
            "weight": 7.0813,
            "cooc": 2
          },
          {
            "source": 778,
            "target": 61328,
            "weight": 1.8514,
            "cooc": 2
          },
          {
            "source": 778,
            "target": 283,
            "weight": 1.4813,
            "cooc": 2
          },
          {
            "source": 778,
            "target": 75967,
            "weight": 1.4332,
            "cooc": 2
          }
        ]
      }
    }
  },
  "locations": {
    "by_role": {
      "all": [
        {
          "o_id": 283,
          "name": "Bénin",
          "lat": 9.5,
          "lng": 2.25,
          "count": 2
        },
        {
          "o_id": 60482,
          "name": "Borgou",
          "lat": 10.74821385974019,
          "lng": 0.6196353130056622,
          "count": 1
        },
        {
          "o_id": 62018,
          "name": "Alibori",
          "lat": 11.128611,
          "lng": 2.936944,
          "count": 1
        },
        {
          "o_id": 62024,
          "name": "Couffo",
          "lat": 6.961944,
          "lng": 1.801667,
          "count": 1
        },
        {
          "o_id": 62025,
          "name": "Donga",
          "lat": 9.7,
          "lng": 1.666667,
          "count": 1
        },
        {
          "o_id": 299,
          "name": "Cotonou",
          "lat": 6.36536,
          "lng": 2.41833,
          "count": 1
        },
        {
          "o_id": 270,
          "name": "Abomey",
          "lat": 7.18286,
          "lng": 1.99119,
          "count": 1
        },
        {
          "o_id": 305,
          "name": "Djougou",
          "lat": 9.70853,
          "lng": 1.66598,
          "count": 1
        },
        {
          "o_id": 276,
          "name": "Aplahoué",
          "lat": 6.93333,
          "lng": 1.68333,
          "count": 1
        },
        {
          "o_id": 372,
          "name": "Nikki",
          "lat": 9.94009,
          "lng": 3.21075,
          "count": 1
        },
        {
          "o_id": 76344,
          "name": "Atacora",
          "lat": 10.3,
          "lng": 1.366667,
          "count": 1
        },
        {
          "o_id": 286,
          "name": "Bohicon",
          "lat": 7.17826,
          "lng": 2.0667,
          "count": 1
        }
      ]
    }
  }
}